{
  "tabs": [
    {
      "name": "Politics",
      "series": [
        {"series_ticker": "KXHORMUZNORM", "label": "Strait of Hormuz"}
      ]
    },
    {
      "name": "Climate",
      "series": [
        {
          "series_ticker": "KXHIGHNY",
          "label": "NYC High Temp",
          "latitude": 40.7128,
          "longitude": -74.0060,
          "nws_station": "KNYC",
          "offset": 0.5
        },
        {
          "series_ticker": "KXHIGHLAX",
          "label": "LA High Temp",
          "latitude": 33.9425,
          "longitude": -118.4081,
          "nws_station": "KLAX",
          "offset": 0.4
        },
        {
          "series_ticker": "KXHIGHCHI",
          "label": "Chicago High",
          "latitude": 41.8781,
          "longitude": -87.6298,
          "nws_station": "KORD",
          "offset": 2.3
        },
        {
          "series_ticker": "KXHIGHAUS",
          "label": "Austin High",
          "latitude": 30.2672,
          "longitude": -97.7431,
          "nws_station": "KAUS",
          "offset": 1.1
        },
        {
          "series_ticker": "KXHIGHTSEA",
          "label": "Seattle High",
          "latitude": 47.6062,
          "longitude": -122.3321,
          "nws_station": "KSEA",
          "offset": 1.2
        },
        {
          "series_ticker": "KXHIGHTPHX",
          "label": "Phoenix High",
          "latitude": 33.4484,
          "longitude": -112.0740,
          "nws_station": "KPHX",
          "offset": 1.2
        },
        {
          "series_ticker": "KXHIGHDEN",
          "label": "Denver High",
          "latitude": 39.7392,
          "longitude": -104.9903,
          "nws_station": "KDEN",
          "offset": -2.3
        },
        {
          "series_ticker": "KXHIGHTLV",
          "label": "Las Vegas High",
          "latitude": 36.1699,
          "longitude": -115.1398,
          "nws_station": "KLAS",
          "offset": -0.3
        },
        {
          "series_ticker": "KXHIGHTMIN",
          "label": "Minneapolis High",
          "latitude": 44.9778,
          "longitude": -93.2650,
          "nws_station": "KMSP",
          "offset": 0.0
        },
        {
          "series_ticker": "KXHIGHTDC",
          "label": "DC High",
          "latitude": 38.9072,
          "longitude": -77.0369,
          "nws_station": "KDCA",
          "offset": 0.2
        },
        {
          "series_ticker": "KXHIGHTSFO",
          "label": "SF High",
          "latitude": 37.7749,
          "longitude": -122.4194,
          "nws_station": "KSFO",
          "offset": -0.4
        },
        {
          "series_ticker": "KXHIGHTDAL",
          "label": "Dallas High",
          "latitude": 32.7767,
          "longitude": -96.7970,
          "nws_station": "KDFW",
          "offset": 0.1
        },
        {
          "series_ticker": "KXHIGHMIA",
          "label": "Miami High",
          "latitude": 25.7617,
          "longitude": -80.1918,
          "nws_station": "KMIA",
          "offset": 2.4
        },
        {
          "series_ticker": "KXHIGHTSATX",
          "label": "San Antonio High",
          "latitude": 29.4241,
          "longitude": -98.4936,
          "nws_station": "KSAT",
          "offset": -0.8
        },
        {
          "series_ticker": "KXHIGHTBOS",
          "label": "Boston High",
          "latitude": 42.3601,
          "longitude": -71.0589,
          "nws_station": "KBOS",
          "offset": 0.2
        },
        {
          "series_ticker": "KXHIGHTATL",
          "label": "Atlanta High",
          "latitude": 33.7490,
          "longitude": -84.3880,
          "nws_station": "KATL",
          "offset": 1.5
        },
        {
          "series_ticker": "KXHIGHPHIL",
          "label": "Philly High",
          "latitude": 39.9526,
          "longitude": -75.1652,
          "nws_station": "KPHL",
          "offset": 1.6
        },
        {
          "series_ticker": "KXHIGHTOKC",
          "label": "OKC High",
          "latitude": 35.4676,
          "longitude": -97.5164,
          "nws_station": "KOKC",
          "offset": -0.6
        },
        {
          "series_ticker": "KXHIGHTHOU",
          "label": "Houston High",
          "latitude": 29.7604,
          "longitude": -95.3698,
          "nws_station": "KIAH",
          "offset": 3.4
        }
      ]
    }
  ]
}
