{
  "tabs": [
    {
      "name": "Politics",
      "series": [
        {
          "series_ticker": "KXHORMUZNORM",
          "label": "Strait of Hormuz"
        }
      ]
    },
    {
      "name": "Climate",
      "series": [
        {
          "series_ticker": "KXHIGHNY",
          "label": "NYC High Temp",
          "latitude": 40.7128,
          "longitude": -74.006,
          "nws_station": "KNYC",
          "offset": 0,
          "entry_hour": 0,
          "weather_source": "local_nbm",
          "timezone": "America/New_York"
        },
        {
          "series_ticker": "KXHIGHLAX",
          "label": "LA High Temp",
          "latitude": 33.9425,
          "longitude": -118.4081,
          "nws_station": "KLAX",
          "offset": 0,
          "entry_hour": 0,
          "weather_source": "local_nbm",
          "timezone": "America/Los_Angeles"
        },
        {
          "series_ticker": "KXHIGHCHI",
          "label": "Chicago High",
          "latitude": 41.8781,
          "longitude": -87.6298,
          "nws_station": "KORD",
          "offset": 0,
          "entry_hour": 2,
          "weather_source": "local_nbm",
          "timezone": "America/Chicago"
        },
        {
          "series_ticker": "KXHIGHAUS",
          "label": "Austin High",
          "latitude": 30.2672,
          "longitude": -97.7431,
          "nws_station": "KAUS",
          "offset": 0,
          "entry_hour": 0,
          "weather_source": "local_nbm",
          "timezone": "America/Chicago"
        },
        {
          "series_ticker": "KXHIGHTSEA",
          "label": "Seattle High",
          "latitude": 47.6062,
          "longitude": -122.3321,
          "nws_station": "KSEA",
          "offset": 0,
          "entry_hour": 13,
          "weather_source": "local_nbm",
          "timezone": "America/Los_Angeles"
        },
        {
          "series_ticker": "KXHIGHTPHX",
          "label": "Phoenix High",
          "latitude": 33.4484,
          "longitude": -112.074,
          "nws_station": "KPHX",
          "offset": 0,
          "entry_hour": 2,
          "weather_source": "local_nbm",
          "timezone": "America/Phoenix"
        },
        {
          "series_ticker": "KXHIGHDEN",
          "label": "Denver High",
          "latitude": 39.7392,
          "longitude": -104.9903,
          "nws_station": "KDEN",
          "offset": 0,
          "entry_hour": 4,
          "weather_source": "local_nbm",
          "timezone": "America/Denver"
        },
        {
          "series_ticker": "KXHIGHTLV",
          "label": "Las Vegas High",
          "latitude": 36.1699,
          "longitude": -115.1398,
          "nws_station": "KLAS",
          "offset": 0,
          "entry_hour": 0,
          "weather_source": "local_nbm",
          "timezone": "America/Los_Angeles"
        },
        {
          "series_ticker": "KXHIGHTMIN",
          "label": "Minneapolis High",
          "latitude": 44.9778,
          "longitude": -93.265,
          "nws_station": "KMSP",
          "offset": 0,
          "entry_hour": 0,
          "weather_source": "local_nbm",
          "timezone": "America/Chicago"
        },
        {
          "series_ticker": "KXHIGHTDC",
          "label": "DC High",
          "latitude": 38.9072,
          "longitude": -77.0369,
          "nws_station": "KDCA",
          "offset": 0,
          "entry_hour": 0,
          "weather_source": "local_nbm",
          "timezone": "America/New_York"
        },
        {
          "series_ticker": "KXHIGHTSFO",
          "label": "SF High",
          "latitude": 37.7749,
          "longitude": -122.4194,
          "nws_station": "KSFO",
          "offset": 0,
          "entry_hour": 4,
          "weather_source": "local_nbm",
          "timezone": "America/Los_Angeles"
        },
        {
          "series_ticker": "KXHIGHTDAL",
          "label": "Dallas High",
          "latitude": 32.7767,
          "longitude": -96.797,
          "nws_station": "KDFW",
          "offset": 0,
          "entry_hour": 1,
          "weather_source": "local_nbm",
          "timezone": "America/Chicago"
        },
        {
          "series_ticker": "KXHIGHMIA",
          "label": "Miami High",
          "latitude": 25.7617,
          "longitude": -80.1918,
          "nws_station": "KMIA",
          "offset": 0,
          "entry_hour": 12,
          "weather_source": "local_nbm",
          "timezone": "America/New_York"
        },
        {
          "series_ticker": "KXHIGHTSATX",
          "label": "San Antonio High",
          "latitude": 29.4241,
          "longitude": -98.4936,
          "nws_station": "KSAT",
          "offset": 0,
          "entry_hour": 0,
          "weather_source": "local_nbm",
          "timezone": "America/Chicago"
        },
        {
          "series_ticker": "KXHIGHTBOS",
          "label": "Boston High",
          "latitude": 42.3601,
          "longitude": -71.0589,
          "nws_station": "KBOS",
          "offset": 0,
          "entry_hour": 0,
          "weather_source": "local_nbm",
          "timezone": "America/New_York"
        },
        {
          "series_ticker": "KXHIGHTATL",
          "label": "Atlanta High",
          "latitude": 33.749,
          "longitude": -84.388,
          "nws_station": "KATL",
          "offset": 0,
          "entry_hour": 2,
          "weather_source": "local_nbm",
          "timezone": "America/New_York"
        },
        {
          "series_ticker": "KXHIGHPHIL",
          "label": "Philly High",
          "latitude": 39.9526,
          "longitude": -75.1652,
          "nws_station": "KPHL",
          "offset": 0,
          "entry_hour": 6,
          "weather_source": "local_nbm",
          "timezone": "America/New_York"
        },
        {
          "series_ticker": "KXHIGHTOKC",
          "label": "OKC High",
          "latitude": 35.4676,
          "longitude": -97.5164,
          "nws_station": "KOKC",
          "offset": 0,
          "entry_hour": 1,
          "weather_source": "local_nbm",
          "timezone": "America/Chicago"
        },
        {
          "series_ticker": "KXHIGHTHOU",
          "label": "Houston High",
          "latitude": 29.7604,
          "longitude": -95.3698,
          "nws_station": "KIAH",
          "offset": 0,
          "entry_hour": 18,
          "weather_source": "local_nbm",
          "timezone": "America/Chicago"
        }
      ]
    },
    {
      "name": "Low Temps",
      "series": [
        {
          "series_ticker": "KXLOWTNYC",
          "label": "NYC Low",
          "latitude": 40.7128,
          "longitude": -74.006,
          "nws_station": "KNYC",
          "offset": 0,
          "entry_hour": 3,
          "weather_source": "local_nbm",
          "timezone": "America/New_York"
        },
        {
          "series_ticker": "KXLOWTLAX",
          "label": "LA Low",
          "latitude": 33.9425,
          "longitude": -118.4081,
          "nws_station": "KLAX",
          "offset": 0,
          "entry_hour": 6,
          "weather_source": "local_nbm",
          "timezone": "America/Los_Angeles"
        },
        {
          "series_ticker": "KXLOWTCHI",
          "label": "Chicago Low",
          "latitude": 41.8781,
          "longitude": -87.6298,
          "nws_station": "KORD",
          "offset": 0,
          "entry_hour": 7,
          "weather_source": "local_nbm",
          "timezone": "America/Chicago"
        },
        {
          "series_ticker": "KXLOWTAUS",
          "label": "Austin Low",
          "latitude": 30.2672,
          "longitude": -97.7431,
          "nws_station": "KAUS",
          "offset": 0,
          "entry_hour": 22,
          "weather_source": "local_nbm",
          "timezone": "America/Chicago"
        },
        {
          "series_ticker": "KXLOWTSEA",
          "label": "Seattle Low",
          "latitude": 47.6062,
          "longitude": -122.3321,
          "nws_station": "KSEA",
          "offset": 0,
          "entry_hour": 16,
          "weather_source": "local_nbm",
          "timezone": "America/Los_Angeles"
        },
        {
          "series_ticker": "KXLOWTPHX",
          "label": "Phoenix Low",
          "latitude": 33.4484,
          "longitude": -112.074,
          "nws_station": "KPHX",
          "offset": 0,
          "entry_hour": 15,
          "weather_source": "local_nbm",
          "timezone": "America/Phoenix"
        },
        {
          "series_ticker": "KXLOWTDEN",
          "label": "Denver Low",
          "latitude": 39.7392,
          "longitude": -104.9903,
          "nws_station": "KDEN",
          "offset": 0,
          "entry_hour": 6,
          "weather_source": "local_nbm",
          "timezone": "America/Denver"
        },
        {
          "series_ticker": "KXLOWTLV",
          "label": "Las Vegas Low",
          "latitude": 36.1699,
          "longitude": -115.1398,
          "nws_station": "KLAS",
          "offset": 0,
          "entry_hour": 13,
          "weather_source": "local_nbm",
          "timezone": "America/Los_Angeles"
        },
        {
          "series_ticker": "KXLOWTMIN",
          "label": "Minneapolis Low",
          "latitude": 44.9778,
          "longitude": -93.265,
          "nws_station": "KMSP",
          "offset": 0,
          "entry_hour": 1,
          "weather_source": "local_nbm",
          "timezone": "America/Chicago"
        },
        {
          "series_ticker": "KXLOWTDC",
          "label": "DC Low",
          "latitude": 38.9072,
          "longitude": -77.0369,
          "nws_station": "KDCA",
          "offset": 0,
          "entry_hour": 1,
          "weather_source": "local_nbm",
          "timezone": "America/New_York"
        },
        {
          "series_ticker": "KXLOWTSFO",
          "label": "SF Low",
          "latitude": 37.7749,
          "longitude": -122.4194,
          "nws_station": "KSFO",
          "offset": 0,
          "entry_hour": 9,
          "weather_source": "local_nbm",
          "timezone": "America/Los_Angeles"
        },
        {
          "series_ticker": "KXLOWTDAL",
          "label": "Dallas Low",
          "latitude": 32.7767,
          "longitude": -96.797,
          "nws_station": "KDFW",
          "offset": 0,
          "entry_hour": 18,
          "weather_source": "local_nbm",
          "timezone": "America/Chicago"
        },
        {
          "series_ticker": "KXLOWTMIA",
          "label": "Miami Low",
          "latitude": 25.7617,
          "longitude": -80.1918,
          "nws_station": "KMIA",
          "offset": 0,
          "entry_hour": 0,
          "weather_source": "local_nbm",
          "timezone": "America/New_York"
        },
        {
          "series_ticker": "KXLOWTSATX",
          "label": "San Antonio Low",
          "latitude": 29.4241,
          "longitude": -98.4936,
          "nws_station": "KSAT",
          "offset": 0,
          "entry_hour": 17,
          "weather_source": "local_nbm",
          "timezone": "America/Chicago"
        },
        {
          "series_ticker": "KXLOWTBOS",
          "label": "Boston Low",
          "latitude": 42.3601,
          "longitude": -71.0589,
          "nws_station": "KBOS",
          "offset": 0,
          "entry_hour": 8,
          "weather_source": "local_nbm",
          "timezone": "America/New_York"
        },
        {
          "series_ticker": "KXLOWTATL",
          "label": "Atlanta Low",
          "latitude": 33.749,
          "longitude": -84.388,
          "nws_station": "KATL",
          "offset": 0,
          "entry_hour": 9,
          "weather_source": "local_nbm",
          "timezone": "America/New_York"
        },
        {
          "series_ticker": "KXLOWTPHIL",
          "label": "Philly Low",
          "latitude": 39.9526,
          "longitude": -75.1652,
          "nws_station": "KPHL",
          "offset": 0,
          "entry_hour": 5,
          "weather_source": "local_nbm",
          "timezone": "America/New_York"
        },
        {
          "series_ticker": "KXLOWTOKC",
          "label": "OKC Low",
          "latitude": 35.4676,
          "longitude": -97.5164,
          "nws_station": "KOKC",
          "offset": 0,
          "entry_hour": 8,
          "weather_source": "local_nbm",
          "timezone": "America/Chicago"
        },
        {
          "series_ticker": "KXLOWTHOU",
          "label": "Houston Low",
          "latitude": 29.7604,
          "longitude": -95.3698,
          "nws_station": "KIAH",
          "offset": 0,
          "entry_hour": 7,
          "weather_source": "local_nbm",
          "timezone": "America/Chicago"
        }
      ]
    }
  ]
}
